{"type":"FeatureCollection","features":[{"type":"Feature","id":7267,"geometry":{"type":"Point","coordinates":[-111.63744127052448,45.980832695361016]},"properties":{"OBJECTID":7267,"ELEVATION":1336.46837,"X_COORD":450625.40560260997,"Y_COORD":5092114.6521275202,"FILLS_ID":" ","ADDRESS":"PRICE RD","FIRE_AREA":"THREE FORKS","TYPE":"DRAFT","SUBDIV":"EAGLE RIDGE ESTATES","TOWN":"RURAL COUNTY","GALLONS":"0","GPM":0,"SOURCE":"POND","USABILITY":"UNKNOWN","COMMENTS":"HYDRANT AND SMALLER FILL PIPE; BROADWATER COUNTY","INSERVICE":"YES"}},{"type":"Feature","id":5827,"geometry":{"type":"Point","coordinates":[-111.53756685618765,45.877434339205237]},"properties":{"OBJECTID":5827,"ELEVATION":0,"X_COORD":458284.12505158002,"Y_COORD":5080569.4999221005,"FILLS_ID":" ","ADDRESS":"KYD RD","FIRE_AREA":"THREE FORKS","TYPE":"PRESSURIZED","SUBDIV":"128 FM 3681","TOWN":"THREE FORKS","GALLONS":"UNL","GPM":0,"SOURCE":"CITY WATER","USABILITY":"YEARLONG","COMMENTS":"EAST OF KYD RD","INSERVICE":"YES"}},{"type":"Feature","id":5824,"geometry":{"type":"Point","coordinates":[-111.54539597645433,45.886078265102199]},"properties":{"OBJECTID":5824,"ELEVATION":0,"X_COORD":457683.12496700999,"Y_COORD":5081533.9999598302,"FILLS_ID":" ","ADDRESS":"KYD RD","FIRE_AREA":"THREE FORKS","TYPE":"PRESSURIZED","SUBDIV":"DEED REF: 128FM3681","TOWN":"THREE FORKS","GALLONS":"UNL","GPM":0,"SOURCE":"CITY WATER","USABILITY":"YEARLONG","COMMENTS":"WEST OF KYD RD","INSERVICE":"YES"}},{"type":"Feature","id":5836,"geometry":{"type":"Point","coordinates":[-111.47051921830177,45.946376851985669]},"properties":{"OBJECTID":5836,"ELEVATION":0,"X_COORD":463532.40629974002,"Y_COORD":5088196.4999284204,"FILLS_ID":" ","ADDRESS":"CLARKSTON RD","FIRE_AREA":"THREE FORKS","TYPE":"PRESSURIZED","SUBDIV":"96-493","TOWN":"TRIDENT","GALLONS":"UNL","GPM":0,"SOURCE":"WELL","USABILITY":"SEASONAL","COMMENTS":"N OF ROAD, TOP OF QUARRY, JUL 1 - OCT 31","INSERVICE":"YES"}},{"type":"Feature","id":5821,"geometry":{"type":"Point","coordinates":[-111.64514777833485,45.82710429753682]},"properties":{"OBJECTID":5821,"ELEVATION":0,"X_COORD":449890.34372493002,"Y_COORD":5075039.5000753896,"FILLS_ID":" ","ADDRESS":"113 MAIN ST","FIRE_AREA":"WILLOW CREEK","TYPE":"PRESSURIZED","SUBDIV":"WILLOW CREEK TOWNSITE","TOWN":"WILLOW CREEK","GALLONS":"10000","GPM":0,"SOURCE":"10000 GALLON TANK FROM WELL","USABILITY":"YEARLONG","COMMENTS":"SOUTH OF FIRE HALL","INSERVICE":"YES"}},{"type":"Feature","id":7273,"geometry":{"type":"Point","coordinates":[-111.47623842060649,45.947670609000575]},"properties":{"OBJECTID":7273,"ELEVATION":1235.53999,"X_COORD":463089.98685423,"Y_COORD":5088342.8758554002,"FILLS_ID":" ","ADDRESS":"TRIDENT RD","FIRE_AREA":"THREE FORKS","TYPE":"PRESSURIZED","SUBDIV":"UNK","TOWN":"TRIDENT","GALLONS":"0","GPM":0,"SOURCE":"","USABILITY":"YEARLONG","COMMENTS":"MONTANA RAIL LINK RR STATION","INSERVICE":"YES"}},{"type":"Feature","id":5830,"geometry":{"type":"Point","coordinates":[-111.55086404381737,45.882073797324999]},"properties":{"OBJECTID":5830,"ELEVATION":0,"X_COORD":457255.78126796999,"Y_COORD":5081092.0000181096,"FILLS_ID":" ","ADDRESS":"BENCH RD","FIRE_AREA":"THREE FORKS","TYPE":"PRESSURIZED","SUBDIV":"21 FM 1476","TOWN":"THREE FORKS","GALLONS":"UNL","GPM":0,"SOURCE":"CITY WATER","USABILITY":"YEARLONG","COMMENTS":"ON LUZENAC GROUNDS","INSERVICE":"YES"}},{"type":"Feature","id":5833,"geometry":{"type":"Point","coordinates":[-111.47731447247016,45.945331623432288]},"properties":{"OBJECTID":5833,"ELEVATION":0,"X_COORD":463005.03130257002,"Y_COORD":5088083.5000576396,"FILLS_ID":" ","ADDRESS":"TRIDENT RD","FIRE_AREA":"THREE FORKS","TYPE":"PRESSURIZED","SUBDIV":"38-120","TOWN":"TRIDENT","GALLONS":"UNL","GPM":0,"SOURCE":"CISTERN","USABILITY":"YEARLONG","COMMENTS":"ON TRIDENT GROUNDS","INSERVICE":"YES"}},{"type":"Feature","id":5839,"geometry":{"type":"Point","coordinates":[-111.47550983171034,45.946086182924226]},"properties":{"OBJECTID":5839,"ELEVATION":0,"X_COORD":463145.40624956001,"Y_COORD":5088166.5000168402,"FILLS_ID":" ","ADDRESS":"TRIDENT RD","FIRE_AREA":"THREE FORKS","TYPE":"PRESSURIZED","SUBDIV":"38-120","TOWN":"TRIDENT","GALLONS":"UNL","GPM":0,"SOURCE":"CISTERN","USABILITY":"YEARLONG","COMMENTS":"ON TRIDENT GROUNDS","INSERVICE":"YES"}},{"type":"Feature","id":5825,"geometry":{"type":"Point","coordinates":[-111.54310215620394,45.884410590342213]},"properties":{"OBJECTID":5825,"ELEVATION":0,"X_COORD":457859.84371411998,"Y_COORD":5081347.5000321101,"FILLS_ID":" ","ADDRESS":"KYD RD","FIRE_AREA":"THREE FORKS","TYPE":"PRESSURIZED","SUBDIV":"DEED REF: 128FM3681","TOWN":"THREE FORKS","GALLONS":"UNL","GPM":0,"SOURCE":"CITY WATER","USABILITY":"YEARLONG","COMMENTS":"EAST OF KYD RD","INSERVICE":"YES"}},{"type":"Feature","id":7270,"geometry":{"type":"Point","coordinates":[-111.55029275816169,45.898194843972568]},"properties":{"OBJECTID":7270,"ELEVATION":1246.4923200000001,"X_COORD":457312.46303660999,"Y_COORD":5082882.81583496,"FILLS_ID":" ","ADDRESS":"N 2ND AVE","FIRE_AREA":"THREE FORKS","TYPE":"PRESSURIZED","SUBDIV":"HEADWATERS ADDITION","TOWN":"RURAL COUNTY","GALLONS":"0","GPM":0,"SOURCE":"","USABILITY":"YEARLONG","COMMENTS":" ","INSERVICE":"YES"}},{"type":"Feature","id":5822,"geometry":{"type":"Point","coordinates":[-111.47669292759859,45.830698945652799]},"properties":{"OBJECTID":5822,"ELEVATION":0,"X_COORD":462977.12504799,"Y_COORD":5075347.0000541303,"FILLS_ID":" ","ADDRESS":"CROWLEY LN","FIRE_AREA":"THREE FORKS","TYPE":"DRAFT","SUBDIV":"COS 2599 LOT 2","TOWN":"THREE FORKS","GALLONS":"UNL","GPM":0,"SOURCE":"SPRING CREEK","USABILITY":"YEARLONG","COMMENTS":"SOUTH OF CROWLEY LN","INSERVICE":"YES"}},{"type":"Feature","id":5838,"geometry":{"type":"Point","coordinates":[-111.48176779001858,45.83041664333949]},"properties":{"OBJECTID":5838,"ELEVATION":0,"X_COORD":462582.78118732001,"Y_COORD":5075318.0000645099,"FILLS_ID":" ","ADDRESS":"CROWLEY LN","FIRE_AREA":"THREE FORKS","TYPE":"PRESSURIZED","SUBDIV":"COS 2599","TOWN":"THREE FORKS","GALLONS":"UNL","GPM":0,"SOURCE":"WELL","USABILITY":"YEARLONG","COMMENTS":"SOUTH OF CROWLEY LN","INSERVICE":"YES"}},{"type":"Feature","id":8315,"geometry":{"type":"Point","coordinates":[-111.56516082987127,45.8891129864232]},"properties":{"OBJECTID":8315,"ELEVATION":0,"X_COORD":0,"Y_COORD":0,"FILLS_ID":null,"ADDRESS":"FRONT STREET","FIRE_AREA":"THREE FORKS","TYPE":"PRESSURIZED","SUBDIV":" ","TOWN":"THREE FORKS","GALLONS":" ","GPM":0,"SOURCE":"","USABILITY":"YEARLONG","COMMENTS":"","INSERVICE":"YES"}},{"type":"Feature","id":7272,"geometry":{"type":"Point","coordinates":[-111.47513392824136,45.948962366870212]},"properties":{"OBJECTID":7272,"ELEVATION":1235.3882799999999,"X_COORD":463176.44615078002,"Y_COORD":5088485.8867408596,"FILLS_ID":" ","ADDRESS":"TRIDENT RD","FIRE_AREA":"THREE FORKS","TYPE":"PRESSURIZED","SUBDIV":"UNK","TOWN":"TRIDENT","GALLONS":"0","GPM":0,"SOURCE":"","USABILITY":"YEARLONG","COMMENTS":" ","INSERVICE":"YES"}},{"type":"Feature","id":7266,"geometry":{"type":"Point","coordinates":[-111.63037681768202,45.975786721563196]},"properties":{"OBJECTID":7266,"ELEVATION":1325.03468,"X_COORD":451168.17463488999,"Y_COORD":5091549.6593710901,"FILLS_ID":" ","ADDRESS":"ROLLING GLEN RANCH LOOP","FIRE_AREA":"THREE FORKS","TYPE":"PRESSURIZED","SUBDIV":"ROLLING GLEN RANCH","TOWN":"RURAL COUNTY","GALLONS":"0","GPM":0,"SOURCE":"","USABILITY":"UNKNOWN","COMMENTS":"RED PLUG; BROADWATER COUNTY","INSERVICE":"YES"}},{"type":"Feature","id":5829,"geometry":{"type":"Point","coordinates":[-111.54955145872334,45.883043175707627]},"properties":{"OBJECTID":5829,"ELEVATION":0,"X_COORD":457358.37496669003,"Y_COORD":5081199.0000353102,"FILLS_ID":" ","ADDRESS":"BENCH RD","FIRE_AREA":"THREE FORKS","TYPE":"PRESSURIZED","SUBDIV":"COS 2115","TOWN":"THREE FORKS","GALLONS":"UNL","GPM":0,"SOURCE":"CITY WATER","USABILITY":"YEARLONG","COMMENTS":"ON LUZENAC GROUNDS","INSERVICE":"YES"}},{"type":"Feature","id":5835,"geometry":{"type":"Point","coordinates":[-111.47171717698122,45.946956942641528]},"properties":{"OBJECTID":5835,"ELEVATION":0,"X_COORD":463439.93749474001,"Y_COORD":5088261.5000050403,"FILLS_ID":" ","ADDRESS":"CLARKSTON RD","FIRE_AREA":"THREE FORKS","TYPE":"PRESSURIZED","SUBDIV":"96-493","TOWN":"TRIDENT","GALLONS":"UNL","GPM":0,"SOURCE":"WELL","USABILITY":"SEASONAL","COMMENTS":"N OF ROAD, BOTTOM OF QUARRY, JUL 1 - OCT 31","INSERVICE":"YES"}},{"type":"Feature","id":5823,"geometry":{"type":"Point","coordinates":[-111.46769338895474,45.897565360013409]},"properties":{"OBJECTID":5823,"ELEVATION":0,"X_COORD":463719.62503199,"Y_COORD":5082772.0000550598,"FILLS_ID":" ","ADDRESS":"CARPENTER LN","FIRE_AREA":"THREE FORKS","TYPE":"DRAFT","SUBDIV":"COS 1868B TR C1","TOWN":"THREE FORKS","GALLONS":"UNL","GPM":0,"SOURCE":"PRIVATE POND","USABILITY":"YEARLONG","COMMENTS":"SOUTH OF CARPENTER LN","INSERVICE":"YES"}},{"type":"Feature","id":7269,"geometry":{"type":"Point","coordinates":[-111.60544264131221,45.95095265889718]},"properties":{"OBJECTID":7269,"ELEVATION":1290.3887,"X_COORD":453078.76256513002,"Y_COORD":5088775.4687424405,"FILLS_ID":" ","ADDRESS":"GRASSHOPPER TRL CT","FIRE_AREA":"THREE FORKS","TYPE":"PRESSURIZED","SUBDIV":"VILLAGE AT ELK RIDGE","TOWN":"RURAL COUNTY","GALLONS":"0","GPM":0,"SOURCE":"","USABILITY":"UNKNOWN","COMMENTS":"BROADWATER COUNTY","INSERVICE":"YES"}},{"type":"Feature","id":5832,"geometry":{"type":"Point","coordinates":[-111.47671397745984,45.946630192200828]},"properties":{"OBJECTID":5832,"ELEVATION":0,"X_COORD":463052.43748358003,"Y_COORD":5088227.49992288,"FILLS_ID":" ","ADDRESS":"TRIDENT RD","FIRE_AREA":"THREE FORKS","TYPE":"PRESSURIZED","SUBDIV":"38-120","TOWN":"TRIDENT","GALLONS":"UNL","GPM":0,"SOURCE":"CISTERN","USABILITY":"YEARLONG","COMMENTS":"ON TRIDENT GROUNDS","INSERVICE":"YES"}},{"type":"Feature","id":5826,"geometry":{"type":"Point","coordinates":[-111.53521373390639,45.878084424875617]},"properties":{"OBJECTID":5826,"ELEVATION":0,"X_COORD":458467.21874370001,"Y_COORD":5080640.5000132201,"FILLS_ID":" ","ADDRESS":"COLTER TRL","FIRE_AREA":"THREE FORKS","TYPE":"PRESSURIZED","SUBDIV":"56-387","TOWN":"THREE FORKS","GALLONS":"UNL","GPM":0,"SOURCE":"CITY WATER","USABILITY":"YEARLONG","COMMENTS":"TOP OF ROAD, BY WATER TANK","INSERVICE":"YES"}},{"type":"Feature","id":7268,"geometry":{"type":"Point","coordinates":[-111.61355610986611,45.957477407406152]},"properties":{"OBJECTID":7268,"ELEVATION":1298.7231300000001,"X_COORD":452455.54438839998,"Y_COORD":5089505.2136871703,"FILLS_ID":" ","ADDRESS":"ROLLING PRAIRIE WAY","FIRE_AREA":"THREE FORKS","TYPE":"PRESSURIZED","SUBDIV":"VILLAGE AT ELK RIDGE","TOWN":"RURAL COUNTY","GALLONS":"0","GPM":0,"SOURCE":"","USABILITY":"UNKNOWN","COMMENTS":"BROADWATER COUNTY","INSERVICE":"YES"}},{"type":"Feature","id":5831,"geometry":{"type":"Point","coordinates":[-111.55194838591625,45.88335564200365]},"properties":{"OBJECTID":5831,"ELEVATION":0,"X_COORD":457172.62506091001,"Y_COORD":5081234.9999613902,"FILLS_ID":" ","ADDRESS":"TALC RD","FIRE_AREA":"THREE FORKS","TYPE":"DRAFT","SUBDIV":"94-72","TOWN":"THREE FORKS","GALLONS":"UNL","GPM":0,"SOURCE":"WILLOW CREEK DITCH","USABILITY":"YEARLONG","COMMENTS":"SOUTH OF TALC RD","INSERVICE":"YES"}},{"type":"Feature","id":5837,"geometry":{"type":"Point","coordinates":[-111.47674484617372,45.948020631282105]},"properties":{"OBJECTID":5837,"ELEVATION":0,"X_COORD":463050.96881803003,"Y_COORD":5088381.9999341797,"FILLS_ID":" ","ADDRESS":"TRIDENT RD","FIRE_AREA":"THREE FORKS","TYPE":"PRESSURIZED","SUBDIV":"UNK","TOWN":"TRIDENT","GALLONS":"UNL","GPM":0,"SOURCE":"CHLORINATED WELL","USABILITY":"YEARLONG","COMMENTS":"IN OLD TOWN OF TRIDENT","INSERVICE":"YES"}},{"type":"Feature","id":8316,"geometry":{"type":"Point","coordinates":[-111.56320562012158,45.889094520779111]},"properties":{"OBJECTID":8316,"ELEVATION":0,"X_COORD":0,"Y_COORD":0,"FILLS_ID":null,"ADDRESS":"FRONT STREET","FIRE_AREA":"THREE FORKS","TYPE":"PRESSURIZED","SUBDIV":" ","TOWN":"THREE FORKS","GALLONS":" ","GPM":0,"SOURCE":"","USABILITY":"YEARLONG","COMMENTS":"","INSERVICE":"YES"}},{"type":"Feature","id":7271,"geometry":{"type":"Point","coordinates":[-111.46764504610516,45.890426981803316]},"properties":{"OBJECTID":7271,"ELEVATION":1248.14581,"X_COORD":463718.72696882999,"Y_COORD":5081978.8709359197,"FILLS_ID":" ","ADDRESS":"LOGAN CEMETARY RD","FIRE_AREA":"THREE FORKS","TYPE":"PRESSURIZED","SUBDIV":"CIRCLE S SEEDS","TOWN":"RURAL COUNTY","GALLONS":"0","GPM":0,"SOURCE":"","USABILITY":"YEARLONG","COMMENTS":" ","INSERVICE":"YES"}},{"type":"Feature","id":5828,"geometry":{"type":"Point","coordinates":[-111.54823105887587,45.883837064991582]},"properties":{"OBJECTID":5828,"ELEVATION":0,"X_COORD":457461.43756991997,"Y_COORD":5081286.4999651602,"FILLS_ID":" ","ADDRESS":"BENCH RD","FIRE_AREA":"THREE FORKS","TYPE":"PRESSURIZED","SUBDIV":"COS 2115","TOWN":"THREE FORKS","GALLONS":"UNL","GPM":0,"SOURCE":"CITY WATER","USABILITY":"YEARLONG","COMMENTS":"ON LUZENAC GROUNDS","INSERVICE":"YES"}},{"type":"Feature","id":5834,"geometry":{"type":"Point","coordinates":[-111.47508701175694,45.94534540510471]},"properties":{"OBJECTID":5834,"ELEVATION":0,"X_COORD":463177.68744431,"Y_COORD":5088084.0000186199,"FILLS_ID":" ","ADDRESS":"TRIDENT RD","FIRE_AREA":"THREE FORKS","TYPE":"PRESSURIZED","SUBDIV":"38-120","TOWN":"TRIDENT","GALLONS":"UNL","GPM":0,"SOURCE":"CHLORINATED WELL","USABILITY":"YEARLONG","COMMENTS":"ON TRIDENT GROUNDS","INSERVICE":"YES"}},{"type":"Feature","id":7711,"geometry":{"type":"Point","coordinates":[-111.5613239425644,45.88917561126577]},"properties":{"OBJECTID":7711,"ELEVATION":1247.6421800000001,"X_COORD":456449.67947286001,"Y_COORD":5081886.6987765804,"FILLS_ID":null,"ADDRESS":"N KANSAS ST","FIRE_AREA":"THREE FORKS","TYPE":"PRESSURIZED","SUBDIV":" ","TOWN":"THREE FORKS","GALLONS":" ","GPM":0,"SOURCE":"","USABILITY":"YEARLONG","COMMENTS":" ","INSERVICE":"YES"}},{"type":"Feature","id":7708,"geometry":{"type":"Point","coordinates":[-111.55553341937242,45.896773245760137]},"properties":{"OBJECTID":7708,"ELEVATION":1245.1493800000001,"X_COORD":456904.82378619001,"Y_COORD":5082727.6869300297,"FILLS_ID":null,"ADDRESS":"N MONTANA ST","FIRE_AREA":"THREE FORKS","TYPE":"PRESSURIZED","SUBDIV":" ","TOWN":"THREE FORKS","GALLONS":" ","GPM":0,"SOURCE":"","USABILITY":"YEARLONG","COMMENTS":" ","INSERVICE":"YES"}},{"type":"Feature","id":8131,"geometry":{"type":"Point","coordinates":[-111.6194307098589,45.996668066194687]},"properties":{"OBJECTID":8131,"ELEVATION":0,"X_COORD":452034.16417629999,"Y_COORD":5093863.0594824003,"FILLS_ID":null,"ADDRESS":"HILLTOP RD","FIRE_AREA":"THREE FORKS","TYPE":"DRAFT","SUBDIV":" ","TOWN":"RURAL COUNTY","GALLONS":"5000","GPM":0,"SOURCE":"CISTERN TANK","USABILITY":"YEARLONG","COMMENTS":"UNDER GARDEN SHED/OWNER CREATED","INSERVICE":"YES"}},{"type":"Feature","id":7710,"geometry":{"type":"Point","coordinates":[-111.56242460394211,45.889855315691491]},"properties":{"OBJECTID":7710,"ELEVATION":1246.8046999999999,"X_COORD":456364.81511942,"Y_COORD":5081962.8183184797,"FILLS_ID":null,"ADDRESS":"N KANSAS ST","FIRE_AREA":"THREE FORKS","TYPE":"PRESSURIZED","SUBDIV":" ","TOWN":"THREE FORKS","GALLONS":" ","GPM":0,"SOURCE":"","USABILITY":"YEARLONG","COMMENTS":" ","INSERVICE":"YES"}},{"type":"Feature","id":8451,"geometry":{"type":"Point","coordinates":[-111.56235281805847,45.888133162241957]},"properties":{"OBJECTID":8451,"ELEVATION":0,"X_COORD":0,"Y_COORD":0,"FILLS_ID":null,"ADDRESS":" ","FIRE_AREA":"THREE FORKS","TYPE":"PRESSURIZED","SUBDIV":"","TOWN":"THREE FORKS","GALLONS":"","GPM":0,"SOURCE":"","USABILITY":"YEARLONG","COMMENTS":"","INSERVICE":"YES"}},{"type":"Feature","id":8450,"geometry":{"type":"Point","coordinates":[-111.56340603771847,45.887289279255384]},"properties":{"OBJECTID":8450,"ELEVATION":0,"X_COORD":0,"Y_COORD":0,"FILLS_ID":null,"ADDRESS":" ","FIRE_AREA":"THREE FORKS","TYPE":"PRESSURIZED","SUBDIV":"","TOWN":"THREE FORKS","GALLONS":"","GPM":0,"SOURCE":"","USABILITY":"YEARLONG","COMMENTS":"","INSERVICE":"YES"}},{"type":"Feature","id":7709,"geometry":{"type":"Point","coordinates":[-111.56350545913625,45.890534655964395]},"properties":{"OBJECTID":7709,"ELEVATION":1247.23649,"X_COORD":456281.48922813998,"Y_COORD":5082038.8877355503,"FILLS_ID":null,"ADDRESS":"N KANSAS ST","FIRE_AREA":"THREE FORKS","TYPE":"PRESSURIZED","SUBDIV":" ","TOWN":"THREE FORKS","GALLONS":" ","GPM":0,"SOURCE":"","USABILITY":"YEARLONG","COMMENTS":" ","INSERVICE":"YES"}},{"type":"Feature","id":6386,"geometry":{"type":"Point","coordinates":[-111.63940855164893,45.984039146380205]},"properties":{"OBJECTID":6386,"ELEVATION":1342.9963,"X_COORD":450475.88138578,"Y_COORD":5092472.1300209099,"FILLS_ID":" ","ADDRESS":"PROSPECT HILL RD","FIRE_AREA":"THREE FORKS","TYPE":"DRAFT","SUBDIV":"BROADWATER COUNTY","TOWN":"RURAL COUNTY","GALLONS":" ","GPM":0,"SOURCE":"","USABILITY":"UNKNOWN","COMMENTS":"DRAFT FILL SITE TUBE","INSERVICE":"YES"}}]}